var data = {
    "type": "FeatureCollection",
    "features": [{
            "type": "Feature",
            "properties": {
                "NAME": "Paviland Cave",
                "TYPE": "Burial/Hoard",
                "TIME": "Paleolithic"
            },
            "geometry": {
                "type": "Point",
                "coordinates": [51.550144, -4.255517]
            }
        },
        {
            "type": "Feature",
            "properties": {
                "NAME": "Kents Cavern",
                "TYPE": "Cave Shelter/Early Human Occupation",
                "TIME": "Paleolithic"
            },
            "geometry": {
                "type": "Point",
                "coordinates": [50.46772, -3.502676]
            }
        },
        {
            "type": "Feature",
            "properties": {
                "NAME": "Gough's Cave",
                "TYPE": "Cave Shelter/Early Human Occupation",
                "TIME": "Paleolithic"
            },
            "geometry": {
                "type": "Point",
                "coordinates": [51.2819, -2.7654]
            }
        },
        {
            "type": "Feature",
            "properties": {
                "NAME": "Creswell Crags",
                "TYPE": "Cave Shelter/Early Human Occupation",
                "TIME": "Paleolithic"
            },
            "geometry": {
                "type": "Point",
                "coordinates": [53.26347, -1.193535]
            }
        },
        {
            "type": "Feature",
            "properties": {
                "NAME": "Eartham Pit",
                "TYPE": "Cave Shelter/Early Human Occupation",
                "TIME": "Paleolithic"
            },
            "geometry": {
                "type": "Point",
                "coordinates": [50.869542, -0.689675]
            }
        },
        {
            "type": "Feature",
            "properties": {
                "NAME": "Swanscombe",
                "TYPE": "Cave Shelter/Early Human Occupation",
                "TIME": "Paleolithic"
            },
            "geometry": {
                "type": "Point",
                "coordinates": [51.444256, 0.296609]
            }
        },
        {
            "type": "Feature",
            "properties": {
                "NAME": "Happisburgh",
                "TYPE": "Cave Shelter/Early Human Occupation",
                "TIME": "Paleolithic"
            },
            "geometry": {
                "type": "Point",
                "coordinates": [52.825278, 1.535]
            }
        },
        {
            "type": "Feature",
            "properties": {
                "NAME": "Star Carr",
                "TYPE": "Settlement",
                "TIME": "Mesolithic"
            },
            "geometry": {
                "type": "Point",
                "coordinates": [54.214167, -0.423333]
            }
        },         
        {
            "type": "Feature",
            "properties": {
                "NAME": "Howick",
                "TYPE": "Settlement",
                "TIME": "Mesolithic"
            },
            "geometry": {
                "type": "Point",
                "coordinates": [55.454, -1.593]
            }
        },  
        {
            "type": "Feature",
            "properties": {
                "NAME": "Oare Marshes",
                "TYPE": "Settlement",
                "TIME": "Mesolithic"
            },
            "geometry": {
                "type": "Point",
                "coordinates": [51.344, 0.886]
            }
        },  
        {
            "type": "Feature",
            "properties": {
                "NAME": "Low Hauxley",
                "TYPE": "Settlement",
                "TIME": "Mesolithic"
            },
            "geometry": {
                "type": "Point",
                "coordinates": [55.3184, -1.5512]
            }
        },  
        {
            "type": "Feature",
            "properties": {
                "NAME": "LLyn Fawr",
                "TYPE": "Settlement",
                "TIME": "Mesolithic"
            },
            "geometry": {
                "type": "Point",
                "coordinates": [51.719722, -3.568333]
            }
        },  
        {
            "type": "Feature",
            "properties": {
                "NAME": "Mount Sandel",
                "TYPE": "Settlement",
                "TIME": "Mesolithic"
            },
            "geometry": {
                "type": "Point",
                "coordinates": [55.1161, -6.6642]
            }
        }, 
        {
            "type": "Feature",
            "properties": {
                "NAME": "Skara Brae",
                "TYPE": "Settlement",
                "TIME": "Neolithic"
            },
            "geometry": {
                "type": "Point",
                "coordinates": [59.048714, -3.34175]
            }
        }, 
        {
            "type": "Feature",
            "properties": {
                "NAME": "Pentre Ifan",
                "TYPE": "Burial/Hoard",
                "TIME": "Neolithic"
            },
            "geometry": {
                "type": "Point",
                "coordinates": [51.999, -4.77]
            }
        }, 
        {
            "type": "Feature",
            "properties": {
                "NAME": "Bryn Celli Ddu",
                "TYPE": "Burial/Hoard",
                "TIME": "Neolithic"
            },
            "geometry": {
                "type": "Point",
                "coordinates": [53.2077, -4.2361]
            }
        }, 
        {
            "type": "Feature",
            "properties": {
                "NAME": "Stonehenge",
                "TYPE": "Ceremonial/Religious",
                "TIME": "Neolithic"
            },
            "geometry": {
                "type": "Point",
                "coordinates": [51.178889, -1.826111]
            }
        }, 
        {
            "type": "Feature",
            "properties": {
                "NAME": "Avebury",
                "TYPE": "Ceremonial/Religious",
                "TIME": "Neolithic"
            },
            "geometry": {
                "type": "Point",
                "coordinates": [51.428611, -1.854167]
            }
        }, 
        {
            "type": "Feature",
            "properties": {
                "NAME": "Silbury Hill",
                "TYPE": "Ceremonial/Religious",
                "TIME": "Neolithic"
            },
            "geometry": {
                "type": "Point",
                "coordinates": [51.4157, -1.8574]
            }
        }, 
        {
            "type": "Feature",
            "properties": {
                "NAME": "Callanish Stones",
                "TYPE": "Ceremonial/Religious",
                "TIME": "Neolithic"
            },
            "geometry": {
                "type": "Point",
                "coordinates": [58.197541, -6.745145]
            }
        }, 
        {
            "type": "Feature",
            "properties": {
                "NAME": "Ring of Brodgar",
                "TYPE": "Ceremonial/Religious",
                "TIME": "Neolithic"
            },
            "geometry": {
                "type": "Point",
                "coordinates": [59.001482, -3.229723]
            }
        },
        {
            "type": "Feature",
            "properties": {
                "NAME": "Must Farm",
                "TYPE": "Settlement",
                "TIME": "Bronze Age"
            },
            "geometry": {
                "type": "Point",
                "coordinates": [52.555236, -0.177319]
            }
        }, 
        {
            "type": "Feature",
            "properties": {
                "NAME": "Grimspound",
                "TYPE": "Settlement",
                "TIME": "Bronze Age"
            },
            "geometry": {
                "type": "Point",
                "coordinates": [50.61331, -3.83738]
            }
        }, 
        {
            "type": "Feature",
            "properties": {
                "NAME": "Flag Fen",
                "TYPE": "Ceremonial/Religious",
                "TIME": "Bronze Age"
            },
            "geometry": {
                "type": "Point",
                "coordinates": [52.574, -0.19]
            }
        },    
        {
            "type": "Feature",
            "properties": {
                "NAME": "Beaghmore",
                "TYPE": "Ceremonial/Religious",
                "TIME": "Bronze Age"
            },
            "geometry": {
                "type": "Point",
                "coordinates": [54.701466, -6.938701]
            }
        },
        {
            "type": "Feature",
            "properties": {
                "NAME": "Milton Keynes Hoard",
                "TYPE": "Burial/Hoard",
                "TIME": "Bronze Age"
            },
            "geometry": {
                "type": "Point",
                "coordinates": [52.033, -0.711]
            }
        },
        {
            "type": "Feature",
            "properties": {
                "NAME": "Rillaton Barrow",
                "TYPE": "Burial/Hoard",
                "TIME": "Bronze Age"
            },
            "geometry": {
                "type": "Point",
                "coordinates": [50.5211, -4.4557]
            }
        },
        {
            "type": "Feature",
            "properties": {
                "NAME": "Glastonbury Lake Village",
                "TYPE": "Settlement",
                "TIME": "Iron Age"
            },
            "geometry": {
                "type": "Point",
                "coordinates": [51.163611, -2.725833]
            }
        },
        {
            "type": "Feature",
            "properties": {
                "NAME": "Carn Euny",
                "TYPE": "Settlement",
                "TIME": "Iron Age"
            },
            "geometry": {
                "type": "Point",
                "coordinates": [50.10234, -5.63448]
            }
        },
        {
            "type": "Feature",
            "properties": {
                "NAME": "Old Oswestry Hillfort",
                "TYPE": "Castle/Fort",
                "TIME": "Iron Age"
            },
            "geometry": {
                "type": "Point",
                "coordinates": [52.87273, -3.04886]
            }
        },
        {
            "type": "Feature",
            "properties": {
                "NAME": "Maiden Castle",
                "TYPE": "Castle/Fort",
                "TIME": "Iron Age"
            },
            "geometry": {
                "type": "Point",
                "coordinates": [50.695, -2.47]
            }
        },
        {
            "type": "Feature",
            "properties": {
                "NAME": "Danebury Hill Fort",
                "TYPE": "Castle/Fort",
                "TIME": "Iron Age"
            },
            "geometry": {
                "type": "Point",
                "coordinates": [51.136681, -1.537569]
            }
        },
        {
            "type": "Feature",
            "properties": {
                "NAME": "Honington Camp",
                "TYPE": "Castle/Fort",
                "TIME": "Iron Age"
            },
            "geometry": {
                "type": "Point",
                "coordinates": [52.969925, -0.580756]
            }
        },
        {
            "type": "Feature",
            "properties": {
                "NAME": "Llyn Cerrig Bach",
                "TYPE": "Burial/Hoard",
                "TIME": "Iron Age"
            },
            "geometry": {
                "type": "Point",
                "coordinates": [53.25885, -4.540288]
            }
        },
        {
            "type": "Feature",
            "properties": {
                "NAME": "Roman Temple of Mithras",
                "TYPE": "Ceremonial/Religious",
                "TIME": "Roman"
            },
            "geometry": {
                "type": "Point",
                "coordinates": [51.5125, -0.0906]
            }
        },
        {
            "type": "Feature",
            "properties": {
                "NAME": "Roman Baths",
                "TYPE": "Ceremonial/Religious",
                "TIME": "Roman"
            },
            "geometry": {
                "type": "Point",
                "coordinates": [51.3809, -2.3595]
            }
        },
        {
            "type": "Feature",
            "properties": {
                "NAME": "Hoxne Hoard",
                "TYPE": "Burial/Hoard",
                "TIME": "Roman"
            },
            "geometry": {
                "type": "Point",
                "coordinates": [52.3425, 1.1875]
            }
        },
        {
            "type": "Feature",
            "properties": {
                "NAME": "Colchester Roman Town",
                "TYPE": "Settlement",
                "TIME": "Roman"
            },
            "geometry": {
                "type": "Point",
                "coordinates": [51.891944, 0.898056]
            }
        },
        {
            "type": "Feature",
            "properties": {
                "NAME": "Vindolanda",
                "TYPE": "Castle/Fort",
                "TIME": "Roman"
            },
            "geometry": {
                "type": "Point",
                "coordinates": [54.9911, -2.3608]
            }
        },
        {
            "type": "Feature",
            "properties": {
                "NAME": "Housesteads Roman Fort",
                "TYPE": "Castle/Fort",
                "TIME": "Roman"
            },
            "geometry": {
                "type": "Point",
                "coordinates": [55.013, -2.331]
            }
        },
        {
            "type": "Feature",
            "properties": {
                "NAME": "Bamburgh Castle",
                "TYPE": "Castle/Fort",
                "TIME": "Anglo-Saxon"
            },
            "geometry": {
                "type": "Point",
                "coordinates": [55.608, -1.709]
            }
        },
        {
            "type": "Feature",
            "properties": {
                "NAME": "Lindisfarne Priory",
                "TYPE": "Ceremonial/Religious",
                "TIME": "Anglo-Saxon"
            },
            "geometry": {
                "type": "Point",
                "coordinates": [55.68, -1.8025]
            }
        },
        {
            "type": "Feature",
            "properties": {
                "NAME": "Repton Abbey",
                "TYPE": "Ceremonial/Religious",
                "TIME": "Anglo-Saxon"
            },
            "geometry": {
                "type": "Point",
                "coordinates": [52.841308, -1.55102]
            }
        },
        {
            "type": "Feature",
            "properties": {
                "NAME": "Bedale Hoard",
                "TYPE": "Burial/Hoard",
                "TIME": "Anglo-Saxon"
            },
            "geometry": {
                "type": "Point",
                "coordinates": [54.29, -1.59]
            }
        },
        {
            "type": "Feature",
            "properties": {
                "NAME": "Prittlewell Princely Burial",
                "TYPE": "Burial/Hoard",
                "TIME": "Anglo-Saxon"
            },
            "geometry": {
                "type": "Point",
                "coordinates": [51.55391, 0.70873]
            }
        },
        {
            "type": "Feature",
            "properties": {
                "NAME": "Sutton Hoo",
                "TYPE": "Burial/Hoard",
                "TIME": "Anglo-Saxon"
            },
            "geometry": {
                "type": "Point",
                "coordinates": [52.089, 1.338]
            }
        },
        {
            "type": "Feature",
            "properties": {
                "NAME": "Spong Hill",
                "TYPE": "Burial/Hoard",
                "TIME": "Anglo-Saxon"
            },
            "geometry": {
                "type": "Point",
                "coordinates": [52.737, 0.934]
            }
        },
        {
            "type": "Feature",
            "properties": {
                "NAME": "Canterbury Cathedral",
                "TYPE": "Ceremonial/Religious",
                "TIME": "Medieval"
            },
            "geometry": {
                "type": "Point",
                "coordinates": [51.2797, 1.0831]
            }
        },
        {
            "type": "Feature",
            "properties": {
                "NAME": "Salisbury Cathedral",
                "TYPE": "Ceremonial/Religious",
                "TIME": "Medieval"
            },
            "geometry": {
                "type": "Point",
                "coordinates": [51.064722, -1.7975]
            }
        },
        {
            "type": "Feature",
            "properties": {
                "NAME": "York Minster",
                "TYPE": "Ceremonial/Religious",
                "TIME": "Medieval"
            },
            "geometry": {
                "type": "Point",
                "coordinates": [53.961944, -1.081944]
            }
        },
        {
            "type": "Feature",
            "properties": {
                "NAME": "Bodiam Castle",
                "TYPE": "Castle/Fort",
                "TIME": "Medieval"
            },
            "geometry": {
                "type": "Point",
                "coordinates": [51.0023, 0.5435]
            }
        },
        {
            "type": "Feature",
            "properties": {
                "NAME": "Caernarfon Castle",
                "TYPE": "Castle/Fort",
                "TIME": "Medieval"
            },
            "geometry": {
                "type": "Point",
                "coordinates": [53.1393, -4.2769]
            }
        }
            
    ]
};